[
  {
    "name": "Venice Marco Polo ",
    "city": "Venice",
    "country": "Italy",
    "IATA": "VCE",
    "ICAO": "LIPZ",
    "lat": "45.505299",
    "lon": "12.3519",
    "timezone": "1"
  },
  {
    "name": "Bandaranaike Intl Colombo ",
    "city": "Colombo",
    "country": "Sri Lanka",
    "IATA": "CMB",
    "ICAO": "VCBI",
    "lat": "7.180759906768799",
    "lon": "79.88410186767578",
    "timezone": "5.5"
  },
  {
    "name": "London Heathrow Airport",
    "city": "London",
    "country": "Englend",
    "IATA": "LON",
    "ICAO": "VCBI",
    "lat": "7.180759906768799",
    "lon": "79.88410186767578",
    "timezone": "5.5"
  },
  {
    "name": "Siena-Ampugnano ",
    "city": "Siena",
    "country": "Italy",
    "IATA": "SAY",
    "ICAO": "LIQS",
    "lat": "43.256302",
    "lon": "11.255",
    "timezone": "1"
  },
  {
    "name": "Ciampino\u2013G. B. Pastine Intl ",
    "city": "Rome",
    "country": "Italy",
    "IATA": "CIA",
    "ICAO": "LIRA",
    "lat": "41.7994",
    "lon": "12.5949",
    "timezone": "1"
  },
  {
    "name": "Fullerton Municipal ",
    "city": "Fullerton",
    "country": "United States",
    "IATA": "FUL",
    "ICAO": "KFUL",
    "lat": "33.8720016479",
    "lon": "-117.980003357",
    "timezone": "-8"
  },
  {
    "name": "Concord-Padgett Regional ",
    "city": "Concord",
    "country": "United States",
    "IATA": "USA",
    "ICAO": "KJQF",
    "lat": "35.387798",
    "lon": "-80.709099",
    "timezone": "-5"
  },
  {
    "name": "Crotone ",
    "city": "Crotone",
    "country": "Italy",
    "IATA": "CRV",
    "ICAO": "LIBC",
    "lat": "38.9972",
    "lon": "17.0802",
    "timezone": "1"
  },
  {
    "name": "Bari Karol Wojty\u0142a ",
    "city": "Bari",
    "country": "Italy",
    "IATA": "BRI",
    "ICAO": "LIBD",
    "lat": "41.138901",
    "lon": "16.760599",
    "timezone": "1"
  },
  {
    "name": "Foggia Gino Lisa ",
    "city": "Foggia",
    "country": "Italy",
    "IATA": "FOG",
    "ICAO": "LIBF",
    "lat": "41.432899",
    "lon": "15.535",
    "timezone": "1"
  },
  {
    "name": "Taranto-Grottaglie Marcello Arlotta ",
    "city": "Grottaglie",
    "country": "Italy",
    "IATA": "TAR",
    "ICAO": "LIBG",
    "lat": "40.517502",
    "lon": "17.4032",
    "timezone": "1"
  },
  {
    "name": "Lecce Galatina Air Base",
    "city": "Lecce",
    "country": "Italy",
    "IATA": "LCC",
    "ICAO": "LIBN",
    "lat": "40.239201",
    "lon": "18.133301",
    "timezone": "1"
  },
  {
    "name": "Pescara Intl ",
    "city": "Pescara",
    "country": "Italy",
    "IATA": "PSR",
    "ICAO": "LIBP",
    "lat": "42.431702",
    "lon": "14.1811",
    "timezone": "1"
  },
  {
    "name": "Brindisi \u2013 Salento ",
    "city": "Brindisi",
    "country": "Italy",
    "IATA": "BDS",
    "ICAO": "LIBR",
    "lat": "40.6576",
    "lon": "17.947001",
    "timezone": "1"
  },

  {
    "name": "Anuradhapura Air Force Base",
    "city": "Anuradhapura",
    "country": "Sri Lanka",
    "IATA": "ACJ",
    "ICAO": "VCCA",
    "lat": "8.30148983002",
    "lon": "80.42790222170001",
    "timezone": "5.5"
  },
  {
    "name": "Batticaloa ",
    "city": "Batticaloa",
    "country": "Sri Lanka",
    "IATA": "BTC",
    "ICAO": "VCCB",
    "lat": "7.70576",
    "lon": "81.678802",
    "timezone": "5.5"
  },
  {
    "name": "Colombo Ratmalana ",
    "city": "Colombo",
    "country": "Sri Lanka",
    "IATA": "RML",
    "ICAO": "VCCC",
    "lat": "6.821990013122559",
    "lon": "79.88619995117188",
    "timezone": "5.5"
  },
  {
    "name": "Ampara ",
    "city": "Galoya",
    "country": "Sri Lanka",
    "IATA": "ADP",
    "ICAO": "VCCG",
    "lat": "7.33776",
    "lon": "81.62594",
    "timezone": "5.5"
  },
  {
    "name": "Kankesanturai ",
    "city": "Jaffna",
    "country": "Sri Lanka",
    "IATA": "JAF",
    "ICAO": "VCCJ",
    "lat": "9.792329788208008",
    "lon": "80.07009887695312",
    "timezone": "5.5"
  },
  {
    "name": "China Bay ",
    "city": "Trinciomalee",
    "country": "Sri Lanka",
    "IATA": "TRR",
    "ICAO": "VCCT",
    "lat": "8.5385103225708",
    "lon": "81.18190002441406",
    "timezone": "5.5"
  },
  {
    "name": "Dubai Intl ",
    "city": "Dubai",
    "country": "United Arab Emirates",
    "IATA": "DXB",
    "ICAO": "OMDB",
    "lat": "25.2527999878",
    "lon": "55.3643989563",
    "timezone": "4"
  },
  {
    "name": "Belfast Intl ",
    "city": "Belfast",
    "country": "United Kingdom",
    "IATA": "BFS",
    "ICAO": "EGAA",
    "lat": "54.6575012207",
    "lon": "-6.2158298492399995",
    "timezone": "0"
  },
  {
    "name": "St Angelo ",
    "city": "Enniskillen",
    "country": "United Kingdom",
    "IATA": "ENK",
    "ICAO": "EGAB",
    "lat": "54.39889907836914",
    "lon": "-7.651669979095459",
    "timezone": "0"
  },
  {
    "name": "George Best Belfast City ",
    "city": "Belfast",
    "country": "United Kingdom",
    "IATA": "BHD",
    "ICAO": "EGAC",
    "lat": "54.618099212646484",
    "lon": "-5.872499942779541",
    "timezone": "0"
  },
  {
    "name": "City of Derry ",
    "city": "Londonderry",
    "country": "United Kingdom",
    "IATA": "LDY",
    "ICAO": "EGAE",
    "lat": "55.04280090332031",
    "lon": "-7.161109924316406",
    "timezone": "0"
  },
  {
    "name": "Birmingham Intl ",
    "city": "Birmingham",
    "country": "United Kingdom",
    "IATA": "BHX",
    "ICAO": "EGBB",
    "lat": "52.453899383499994",
    "lon": "-1.74802994728",
    "timezone": "0"
  },
  {
    "name": "Coventry ",
    "city": "Coventry",
    "country": "United Kingdom",
    "IATA": "CVT",
    "ICAO": "EGBE",
    "lat": "52.3697013855",
    "lon": "-1.4797199964499999",
    "timezone": "0"
  }
]
